{"status":0,"data":{"cid":"xIArfTpWn5","authorUid":"bd-1298913600","authorUserName":"思***展","title":"世界泵机销售图","description":"世界泵机销售分布图","latestVersion":4,"alwaysLatest":1,"createTime":"2019-03-11T09:12:32.000Z","lastUpdateTime":"2021-02-04T03:11:10.000Z","auth":1,"uid":"bd-1298913600","publishedVersion":0,"forkFrom":"-","isSpam":0,"version":4,"parentVersion":3,"echartsVersion":"4.2.1","versionCreateTime":"2019-03-12T02:32:58.000Z","code":"$.get('https://s3-us-west-2.amazonaws.com/s.cdpn.io/95368/world.json', function (chinaJson) {\n    echarts.registerMap('world', chinaJson);\n//参考数据01\nvar latlong = {};\nlatlong.AD = {'latitude':42.5, 'longitude':1.5};\nlatlong.AE = {'latitude':24, 'longitude':54};\nlatlong.AF = {'latitude':33, 'longitude':65};\nlatlong.AG = {'latitude':17.05, 'longitude':-61.8};\nlatlong.AI = {'latitude':18.25, 'longitude':-63.1667};\nlatlong.AL = {'latitude':41, 'longitude':20};\nlatlong.AM = {'latitude':40, 'longitude':45};\nlatlong.AN = {'latitude':12.25, 'longitude':-68.75};\nlatlong.AO = {'latitude':-12.5, 'longitude':18.5};\nlatlong.AP = {'latitude':35, 'longitude':105};\nlatlong.AQ = {'latitude':-90, 'longitude':0};\nlatlong.AR = {'latitude':-34, 'longitude':-64};\nlatlong.AS = {'latitude':-14.3333, 'longitude':-170};\nlatlong.AT = {'latitude':47.3333, 'longitude':13.3333};\nlatlong.AU = {'latitude':-27, 'longitude':133};\nlatlong.AW = {'latitude':12.5, 'longitude':-69.9667};\nlatlong.AZ = {'latitude':40.5, 'longitude':47.5};\nlatlong.BA = {'latitude':44, 'longitude':18};\nlatlong.BB = {'latitude':13.1667, 'longitude':-59.5333};\nlatlong.BD = {'latitude':24, 'longitude':90};\nlatlong.BE = {'latitude':50.8333, 'longitude':4};\nlatlong.BF = {'latitude':13, 'longitude':-2};\nlatlong.BG = {'latitude':43, 'longitude':25};\nlatlong.BH = {'latitude':26, 'longitude':50.55};\nlatlong.BI = {'latitude':-3.5, 'longitude':30};\nlatlong.BJ = {'latitude':9.5, 'longitude':2.25};\nlatlong.BM = {'latitude':32.3333, 'longitude':-64.75};\nlatlong.BN = {'latitude':4.5, 'longitude':114.6667};\nlatlong.BO = {'latitude':-17, 'longitude':-65};\nlatlong.BR = {'latitude':-10, 'longitude':-55};\nlatlong.BS = {'latitude':24.25, 'longitude':-76};\nlatlong.BT = {'latitude':27.5, 'longitude':90.5};\nlatlong.BV = {'latitude':-54.4333, 'longitude':3.4};\nlatlong.BW = {'latitude':-22, 'longitude':24};\nlatlong.BY = {'latitude':53, 'longitude':28};\nlatlong.BZ = {'latitude':17.25, 'longitude':-88.75};\nlatlong.CA = {'latitude':54, 'longitude':-100};\nlatlong.CC = {'latitude':-12.5, 'longitude':96.8333};\nlatlong.CD = {'latitude':0, 'longitude':25};\nlatlong.CF = {'latitude':7, 'longitude':21};\nlatlong.CG = {'latitude':-1, 'longitude':15};\nlatlong.CH = {'latitude':47, 'longitude':8};\nlatlong.CI = {'latitude':8, 'longitude':-5};\nlatlong.CK = {'latitude':-21.2333, 'longitude':-159.7667};\nlatlong.CL = {'latitude':-30, 'longitude':-71};\nlatlong.CM = {'latitude':6, 'longitude':12};\nlatlong.CN = {'latitude':35, 'longitude':105};\nlatlong.CO = {'latitude':4, 'longitude':-72};\nlatlong.CR = {'latitude':10, 'longitude':-84};\nlatlong.CU = {'latitude':21.5, 'longitude':-80};\nlatlong.CV = {'latitude':16, 'longitude':-24};\nlatlong.CX = {'latitude':-10.5, 'longitude':105.6667};\nlatlong.CY = {'latitude':35, 'longitude':33};\nlatlong.CZ = {'latitude':49.75, 'longitude':15.5};\nlatlong.DE = {'latitude':51, 'longitude':9};\nlatlong.DJ = {'latitude':11.5, 'longitude':43};\nlatlong.DK = {'latitude':56, 'longitude':10};\nlatlong.DM = {'latitude':15.4167, 'longitude':-61.3333};\nlatlong.DO = {'latitude':19, 'longitude':-70.6667};\nlatlong.DZ = {'latitude':28, 'longitude':3};\nlatlong.EC = {'latitude':-2, 'longitude':-77.5};\nlatlong.EE = {'latitude':59, 'longitude':26};\nlatlong.EG = {'latitude':27, 'longitude':30};\nlatlong.EH = {'latitude':24.5, 'longitude':-13};\nlatlong.ER = {'latitude':15, 'longitude':39};\nlatlong.ES = {'latitude':40, 'longitude':-4};\nlatlong.ET = {'latitude':8, 'longitude':38};\nlatlong.EU = {'latitude':47, 'longitude':8};\nlatlong.FI = {'latitude':62, 'longitude':26};\nlatlong.FJ = {'latitude':-18, 'longitude':175};\nlatlong.FK = {'latitude':-51.75, 'longitude':-59};\nlatlong.FM = {'latitude':6.9167, 'longitude':158.25};\nlatlong.FO = {'latitude':62, 'longitude':-7};\nlatlong.FR = {'latitude':46, 'longitude':2};\nlatlong.GA = {'latitude':-1, 'longitude':11.75};\nlatlong.GB = {'latitude':54, 'longitude':-2};\nlatlong.GD = {'latitude':12.1167, 'longitude':-61.6667};\nlatlong.GE = {'latitude':42, 'longitude':43.5};\nlatlong.GF = {'latitude':4, 'longitude':-53};\nlatlong.GH = {'latitude':8, 'longitude':-2};\nlatlong.GI = {'latitude':36.1833, 'longitude':-5.3667};\nlatlong.GL = {'latitude':72, 'longitude':-40};\nlatlong.GM = {'latitude':13.4667, 'longitude':-16.5667};\nlatlong.GN = {'latitude':11, 'longitude':-10};\nlatlong.GP = {'latitude':16.25, 'longitude':-61.5833};\nlatlong.GQ = {'latitude':2, 'longitude':10};\nlatlong.GR = {'latitude':39, 'longitude':22};\nlatlong.GS = {'latitude':-54.5, 'longitude':-37};\nlatlong.GT = {'latitude':15.5, 'longitude':-90.25};\nlatlong.GU = {'latitude':13.4667, 'longitude':144.7833};\nlatlong.GW = {'latitude':12, 'longitude':-15};\nlatlong.GY = {'latitude':5, 'longitude':-59};\nlatlong.HK = {'latitude':22.25, 'longitude':114.1667};\nlatlong.HM = {'latitude':-53.1, 'longitude':72.5167};\nlatlong.HN = {'latitude':15, 'longitude':-86.5};\nlatlong.HR = {'latitude':45.1667, 'longitude':15.5};\nlatlong.HT = {'latitude':19, 'longitude':-72.4167};\nlatlong.HU = {'latitude':47, 'longitude':20};\nlatlong.ID = {'latitude':-5, 'longitude':120};\nlatlong.IE = {'latitude':53, 'longitude':-8};\nlatlong.IL = {'latitude':31.5, 'longitude':34.75};\nlatlong.IN = {'latitude':20, 'longitude':77};\nlatlong.IO = {'latitude':-6, 'longitude':71.5};\nlatlong.IQ = {'latitude':33, 'longitude':44};\nlatlong.IR = {'latitude':32, 'longitude':53};\nlatlong.IS = {'latitude':65, 'longitude':-18};\nlatlong.IT = {'latitude':42.8333, 'longitude':12.8333};\nlatlong.JM = {'latitude':18.25, 'longitude':-77.5};\nlatlong.JO = {'latitude':31, 'longitude':36};\nlatlong.JP = {'latitude':36, 'longitude':138};\nlatlong.KE = {'latitude':1, 'longitude':38};\nlatlong.KG = {'latitude':41, 'longitude':75};\nlatlong.KH = {'latitude':13, 'longitude':105};\nlatlong.KI = {'latitude':1.4167, 'longitude':173};\nlatlong.KM = {'latitude':-12.1667, 'longitude':44.25};\nlatlong.KN = {'latitude':17.3333, 'longitude':-62.75};\nlatlong.KP = {'latitude':40, 'longitude':127};\nlatlong.KR = {'latitude':37, 'longitude':127.5};\nlatlong.KW = {'latitude':29.3375, 'longitude':47.6581};\nlatlong.KY = {'latitude':19.5, 'longitude':-80.5};\nlatlong.KZ = {'latitude':48, 'longitude':68};\nlatlong.LA = {'latitude':18, 'longitude':105};\nlatlong.LB = {'latitude':33.8333, 'longitude':35.8333};\nlatlong.LC = {'latitude':13.8833, 'longitude':-61.1333};\nlatlong.LI = {'latitude':47.1667, 'longitude':9.5333};\nlatlong.LK = {'latitude':7, 'longitude':81};\nlatlong.LR = {'latitude':6.5, 'longitude':-9.5};\nlatlong.LS = {'latitude':-29.5, 'longitude':28.5};\nlatlong.LT = {'latitude':55, 'longitude':24};\nlatlong.LU = {'latitude':49.75, 'longitude':6};\nlatlong.LV = {'latitude':57, 'longitude':25};\nlatlong.LY = {'latitude':25, 'longitude':17};\nlatlong.MA = {'latitude':32, 'longitude':-5};\nlatlong.MC = {'latitude':43.7333, 'longitude':7.4};\nlatlong.MD = {'latitude':47, 'longitude':29};\nlatlong.ME = {'latitude':42.5, 'longitude':19.4};\nlatlong.MG = {'latitude':-20, 'longitude':47};\nlatlong.MH = {'latitude':9, 'longitude':168};\nlatlong.MK = {'latitude':41.8333, 'longitude':22};\nlatlong.ML = {'latitude':17, 'longitude':-4};\nlatlong.MM = {'latitude':22, 'longitude':98};\nlatlong.MN = {'latitude':46, 'longitude':105};\nlatlong.MO = {'latitude':22.1667, 'longitude':113.55};\nlatlong.MP = {'latitude':15.2, 'longitude':145.75};\nlatlong.MQ = {'latitude':14.6667, 'longitude':-61};\nlatlong.MR = {'latitude':20, 'longitude':-12};\nlatlong.MS = {'latitude':16.75, 'longitude':-62.2};\nlatlong.MT = {'latitude':35.8333, 'longitude':14.5833};\nlatlong.MU = {'latitude':-20.2833, 'longitude':57.55};\nlatlong.MV = {'latitude':3.25, 'longitude':73};\nlatlong.MW = {'latitude':-13.5, 'longitude':34};\nlatlong.MX = {'latitude':23, 'longitude':-102};\nlatlong.MY = {'latitude':2.5, 'longitude':112.5};\nlatlong.MZ = {'latitude':-18.25, 'longitude':35};\nlatlong.NA = {'latitude':-22, 'longitude':17};\nlatlong.NC = {'latitude':-21.5, 'longitude':165.5};\nlatlong.NE = {'latitude':16, 'longitude':8};\nlatlong.NF = {'latitude':-29.0333, 'longitude':167.95};\nlatlong.NG = {'latitude':10, 'longitude':8};\nlatlong.NI = {'latitude':13, 'longitude':-85};\nlatlong.NL = {'latitude':52.5, 'longitude':5.75};\nlatlong.NO = {'latitude':62, 'longitude':10};\nlatlong.NP = {'latitude':28, 'longitude':84};\nlatlong.NR = {'latitude':-0.5333, 'longitude':166.9167};\nlatlong.NU = {'latitude':-19.0333, 'longitude':-169.8667};\nlatlong.NZ = {'latitude':-41, 'longitude':174};\nlatlong.OM = {'latitude':21, 'longitude':57};\nlatlong.PA = {'latitude':9, 'longitude':-80};\nlatlong.PE = {'latitude':-10, 'longitude':-76};\nlatlong.PF = {'latitude':-15, 'longitude':-140};\nlatlong.PG = {'latitude':-6, 'longitude':147};\nlatlong.PH = {'latitude':13, 'longitude':122};\nlatlong.PK = {'latitude':30, 'longitude':70};\nlatlong.PL = {'latitude':52, 'longitude':20};\nlatlong.PM = {'latitude':46.8333, 'longitude':-56.3333};\nlatlong.PR = {'latitude':18.25, 'longitude':-66.5};\nlatlong.PS = {'latitude':32, 'longitude':35.25};\nlatlong.PT = {'latitude':39.5, 'longitude':-8};\nlatlong.PW = {'latitude':7.5, 'longitude':134.5};\nlatlong.PY = {'latitude':-23, 'longitude':-58};\nlatlong.QA = {'latitude':25.5, 'longitude':51.25};\nlatlong.RE = {'latitude':-21.1, 'longitude':55.6};\nlatlong.RO = {'latitude':46, 'longitude':25};\nlatlong.RS = {'latitude':44, 'longitude':21};\nlatlong.RU = {'latitude':60, 'longitude':100};\nlatlong.RW = {'latitude':-2, 'longitude':30};\nlatlong.SA = {'latitude':25, 'longitude':45};\nlatlong.SB = {'latitude':-8, 'longitude':159};\nlatlong.SC = {'latitude':-4.5833, 'longitude':55.6667};\nlatlong.SD = {'latitude':15, 'longitude':30};\nlatlong.SE = {'latitude':62, 'longitude':15};\nlatlong.SG = {'latitude':1.3667, 'longitude':103.8};\nlatlong.SH = {'latitude':-15.9333, 'longitude':-5.7};\nlatlong.SI = {'latitude':46, 'longitude':15};\nlatlong.SJ = {'latitude':78, 'longitude':20};\nlatlong.SK = {'latitude':48.6667, 'longitude':19.5};\nlatlong.SL = {'latitude':8.5, 'longitude':-11.5};\nlatlong.SM = {'latitude':43.7667, 'longitude':12.4167};\nlatlong.SN = {'latitude':14, 'longitude':-14};\nlatlong.SO = {'latitude':10, 'longitude':49};\nlatlong.SR = {'latitude':4, 'longitude':-56};\nlatlong.ST = {'latitude':1, 'longitude':7};\nlatlong.SV = {'latitude':13.8333, 'longitude':-88.9167};\nlatlong.SY = {'latitude':35, 'longitude':38};\nlatlong.SZ = {'latitude':-26.5, 'longitude':31.5};\nlatlong.TC = {'latitude':21.75, 'longitude':-71.5833};\nlatlong.TD = {'latitude':15, 'longitude':19};\nlatlong.TF = {'latitude':-43, 'longitude':67};\nlatlong.TG = {'latitude':8, 'longitude':1.1667};\nlatlong.TH = {'latitude':15, 'longitude':100};\nlatlong.TJ = {'latitude':39, 'longitude':71};\nlatlong.TK = {'latitude':-9, 'longitude':-172};\nlatlong.TM = {'latitude':40, 'longitude':60};\nlatlong.TN = {'latitude':34, 'longitude':9};\nlatlong.TO = {'latitude':-20, 'longitude':-175};\nlatlong.TR = {'latitude':39, 'longitude':35};\nlatlong.TT = {'latitude':11, 'longitude':-61};\nlatlong.TV = {'latitude':-8, 'longitude':178};\nlatlong.TW = {'latitude':23.5, 'longitude':121};\nlatlong.TZ = {'latitude':-6, 'longitude':35};\nlatlong.UA = {'latitude':49, 'longitude':32};\nlatlong.UG = {'latitude':1, 'longitude':32};\nlatlong.UM = {'latitude':19.2833, 'longitude':166.6};\nlatlong.US = {'latitude':38, 'longitude':-97};\nlatlong.UY = {'latitude':-33, 'longitude':-56};\nlatlong.UZ = {'latitude':41, 'longitude':64};\nlatlong.VA = {'latitude':41.9, 'longitude':12.45};\nlatlong.VC = {'latitude':13.25, 'longitude':-61.2};\nlatlong.VE = {'latitude':8, 'longitude':-66};\nlatlong.VG = {'latitude':18.5, 'longitude':-64.5};\nlatlong.VI = {'latitude':18.3333, 'longitude':-64.8333};\nlatlong.VN = {'latitude':16, 'longitude':106};\nlatlong.VU = {'latitude':-16, 'longitude':167};\nlatlong.WF = {'latitude':-13.3, 'longitude':-176.2};\nlatlong.WS = {'latitude':-13.5833, 'longitude':-172.3333};\nlatlong.YE = {'latitude':15, 'longitude':48};\nlatlong.YT = {'latitude':-12.8333, 'longitude':45.1667};\nlatlong.ZA = {'latitude':-29, 'longitude':24};\nlatlong.ZM = {'latitude':-15, 'longitude':30};\nlatlong.ZW = {'latitude':-20, 'longitude':30};\n//参考数据02\nvar mapData = [\n{'code':'AF' , 'name':'Afghanistan', 'value':32358260, 'color':'#eea638'},\n{'code':'AL' , 'name':'Albania', 'value':3215988, 'color':'#d8854f'},\n{'code':'DZ' , 'name':'Algeria', 'value':35980193, 'color':'#de4c4f'},\n{'code':'AO' , 'name':'Angola', 'value':19618432, 'color':'#de4c4f'},\n{'code':'AR' , 'name':'Argentina', 'value':40764561, 'color':'#86a965'},\n{'code':'AM' , 'name':'Armenia', 'value':3100236, 'color':'#d8854f'},\n{'code':'AU' , 'name':'Australia', 'value':22605732, 'color':'#8aabb0'},\n{'code':'AT' , 'name':'Austria', 'value':8413429, 'color':'#d8854f'},\n{'code':'AZ' , 'name':'Azerbaijan', 'value':9306023, 'color':'#d8854f'},\n{'code':'BH' , 'name':'Bahrain', 'value':1323535, 'color':'#eea638'},\n{'code':'BD' , 'name':'Bangladesh', 'value':150493658, 'color':'#eea638'},\n{'code':'BY' , 'name':'Belarus', 'value':9559441, 'color':'#d8854f'},\n{'code':'BE' , 'name':'Belgium', 'value':10754056, 'color':'#d8854f'},\n{'code':'BJ' , 'name':'Benin', 'value':9099922, 'color':'#de4c4f'},\n{'code':'BT' , 'name':'Bhutan', 'value':738267, 'color':'#eea638'},\n{'code':'BO' , 'name':'Bolivia', 'value':10088108, 'color':'#86a965'},\n{'code':'BA' , 'name':'Bosnia and Herzegovina', 'value':3752228, 'color':'#d8854f'},\n{'code':'BW' , 'name':'Botswana', 'value':2030738, 'color':'#de4c4f'},\n{'code':'BR' , 'name':'Brazil', 'value':196655014, 'color':'#86a965'},\n{'code':'BN' , 'name':'Brunei', 'value':405938, 'color':'#eea638'},\n{'code':'BG' , 'name':'Bulgaria', 'value':7446135, 'color':'#d8854f'},\n{'code':'BF' , 'name':'Burkina Faso', 'value':16967845, 'color':'#de4c4f'},\n{'code':'BI' , 'name':'Burundi', 'value':8575172, 'color':'#de4c4f'},\n{'code':'KH' , 'name':'Cambodia', 'value':14305183, 'color':'#eea638'},\n{'code':'CM' , 'name':'Cameroon', 'value':20030362, 'color':'#de4c4f'},\n{'code':'CA' , 'name':'Canada', 'value':34349561, 'color':'#a7a737'},\n{'code':'CV' , 'name':'Cape Verde', 'value':500585, 'color':'#de4c4f'},\n{'code':'CF' , 'name':'Central African Rep.', 'value':4486837, 'color':'#de4c4f'},\n{'code':'TD' , 'name':'Chad', 'value':11525496, 'color':'#de4c4f'},\n{'code':'CL' , 'name':'Chile', 'value':17269525, 'color':'#86a965'},\n{'code':'CN' , 'name':'China', 'value':1347565324, 'color':'#eea638'},\n{'code':'CO' , 'name':'Colombia', 'value':46927125, 'color':'#86a965'},\n{'code':'KM' , 'name':'Comoros', 'value':753943, 'color':'#de4c4f'},\n{'code':'CD' , 'name':'Congo, Dem. Rep.', 'value':67757577, 'color':'#de4c4f'},\n{'code':'CG' , 'name':'Congo, Rep.', 'value':4139748, 'color':'#de4c4f'},\n{'code':'CR' , 'name':'Costa Rica', 'value':4726575, 'color':'#a7a737'},\n{'code':'CI' , 'name':'Cote d\\'Ivoire', 'value':20152894, 'color':'#de4c4f'},\n{'code':'HR' , 'name':'Croatia', 'value':4395560, 'color':'#d8854f'},\n{'code':'CU' , 'name':'Cuba', 'value':11253665, 'color':'#a7a737'},\n{'code':'CY' , 'name':'Cyprus', 'value':1116564, 'color':'#d8854f'},\n{'code':'CZ' , 'name':'Czech Rep.', 'value':10534293, 'color':'#d8854f'},\n{'code':'DK' , 'name':'Denmark', 'value':5572594, 'color':'#d8854f'},\n{'code':'DJ' , 'name':'Djibouti', 'value':905564, 'color':'#de4c4f'},\n{'code':'DO' , 'name':'Dominican Rep.', 'value':10056181, 'color':'#a7a737'},\n{'code':'EC' , 'name':'Ecuador', 'value':14666055, 'color':'#86a965'},\n{'code':'EG' , 'name':'Egypt', 'value':82536770, 'color':'#de4c4f'},\n{'code':'SV' , 'name':'El Salvador', 'value':6227491, 'color':'#a7a737'},\n{'code':'GQ' , 'name':'Equatorial Guinea', 'value':720213, 'color':'#de4c4f'},\n{'code':'ER' , 'name':'Eritrea', 'value':5415280, 'color':'#de4c4f'},\n{'code':'EE' , 'name':'Estonia', 'value':1340537, 'color':'#d8854f'},\n{'code':'ET' , 'name':'Ethiopia', 'value':84734262, 'color':'#de4c4f'},\n{'code':'FJ' , 'name':'Fiji', 'value':868406, 'color':'#8aabb0'},\n{'code':'FI' , 'name':'Finland', 'value':5384770, 'color':'#d8854f'},\n{'code':'FR' , 'name':'France', 'value':63125894, 'color':'#d8854f'},\n{'code':'GA' , 'name':'Gabon', 'value':1534262, 'color':'#de4c4f'},\n{'code':'GM' , 'name':'Gambia', 'value':1776103, 'color':'#de4c4f'},\n{'code':'GE' , 'name':'Georgia', 'value':4329026, 'color':'#d8854f'},\n{'code':'DE' , 'name':'Germany', 'value':82162512, 'color':'#d8854f'},\n{'code':'GH' , 'name':'Ghana', 'value':24965816, 'color':'#de4c4f'},\n{'code':'GR' , 'name':'Greece', 'value':11390031, 'color':'#d8854f'},\n{'code':'GT' , 'name':'Guatemala', 'value':14757316, 'color':'#a7a737'},\n{'code':'GN' , 'name':'Guinea', 'value':10221808, 'color':'#de4c4f'},\n{'code':'GW' , 'name':'Guinea-Bissau', 'value':1547061, 'color':'#de4c4f'},\n{'code':'GY' , 'name':'Guyana', 'value':756040, 'color':'#86a965'},\n{'code':'HT' , 'name':'Haiti', 'value':10123787, 'color':'#a7a737'},\n{'code':'HN' , 'name':'Honduras', 'value':7754687, 'color':'#a7a737'},\n{'code':'HK' , 'name':'Hong Kong, China', 'value':7122187, 'color':'#eea638'},\n{'code':'HU' , 'name':'Hungary', 'value':9966116, 'color':'#d8854f'},\n{'code':'IS' , 'name':'Iceland', 'value':324366, 'color':'#d8854f'},\n{'code':'IN' , 'name':'India', 'value':1241491960, 'color':'#eea638'},\n{'code':'ID' , 'name':'Indonesia', 'value':242325638, 'color':'#eea638'},\n{'code':'IR' , 'name':'Iran', 'value':74798599, 'color':'#eea638'},\n{'code':'IQ' , 'name':'Iraq', 'value':32664942, 'color':'#eea638'},\n{'code':'IE' , 'name':'Ireland', 'value':4525802, 'color':'#d8854f'},\n{'code':'IL' , 'name':'Israel', 'value':7562194, 'color':'#eea638'},\n{'code':'IT' , 'name':'Italy', 'value':60788694, 'color':'#d8854f'},\n{'code':'JM' , 'name':'Jamaica', 'value':2751273, 'color':'#a7a737'},\n{'code':'JP' , 'name':'Japan', 'value':126497241, 'color':'#eea638'},\n{'code':'JO' , 'name':'Jordan', 'value':6330169, 'color':'#eea638'},\n{'code':'KZ' , 'name':'Kazakhstan', 'value':16206750, 'color':'#eea638'},\n{'code':'KE' , 'name':'Kenya', 'value':41609728, 'color':'#de4c4f'},\n{'code':'KP' , 'name':'Korea, Dem. Rep.', 'value':24451285, 'color':'#eea638'},\n{'code':'KR' , 'name':'Korea, Rep.', 'value':48391343, 'color':'#eea638'},\n{'code':'KW' , 'name':'Kuwait', 'value':2818042, 'color':'#eea638'},\n{'code':'KG' , 'name':'Kyrgyzstan', 'value':5392580, 'color':'#eea638'},\n{'code':'LA' , 'name':'Laos', 'value':6288037, 'color':'#eea638'},\n{'code':'LV' , 'name':'Latvia', 'value':2243142, 'color':'#d8854f'},\n{'code':'LB' , 'name':'Lebanon', 'value':4259405, 'color':'#eea638'},\n{'code':'LS' , 'name':'Lesotho', 'value':2193843, 'color':'#de4c4f'},\n{'code':'LR' , 'name':'Liberia', 'value':4128572, 'color':'#de4c4f'},\n{'code':'LY' , 'name':'Libya', 'value':6422772, 'color':'#de4c4f'},\n{'code':'LT' , 'name':'Lithuania', 'value':3307481, 'color':'#d8854f'},\n{'code':'LU' , 'name':'Luxembourg', 'value':515941, 'color':'#d8854f'},\n{'code':'MK' , 'name':'Macedonia, FYR', 'value':2063893, 'color':'#d8854f'},\n{'code':'MG' , 'name':'Madagascar', 'value':21315135, 'color':'#de4c4f'},\n{'code':'MW' , 'name':'Malawi', 'value':15380888, 'color':'#de4c4f'},\n{'code':'MY' , 'name':'Malaysia', 'value':28859154, 'color':'#eea638'},\n{'code':'ML' , 'name':'Mali', 'value':15839538, 'color':'#de4c4f'},\n{'code':'MR' , 'name':'Mauritania', 'value':3541540, 'color':'#de4c4f'},\n{'code':'MU' , 'name':'Mauritius', 'value':1306593, 'color':'#de4c4f'},\n{'code':'MX' , 'name':'Mexico', 'value':114793341, 'color':'#a7a737'},\n{'code':'MD' , 'name':'Moldova', 'value':3544864, 'color':'#d8854f'},\n{'code':'MN' , 'name':'Mongolia', 'value':2800114, 'color':'#eea638'},\n{'code':'ME' , 'name':'Montenegro', 'value':632261, 'color':'#d8854f'},\n{'code':'MA' , 'name':'Morocco', 'value':32272974, 'color':'#de4c4f'},\n{'code':'MZ' , 'name':'Mozambique', 'value':23929708, 'color':'#de4c4f'},\n{'code':'MM' , 'name':'Myanmar', 'value':48336763, 'color':'#eea638'},\n{'code':'NA' , 'name':'Namibia', 'value':2324004, 'color':'#de4c4f'},\n{'code':'NP' , 'name':'Nepal', 'value':30485798, 'color':'#eea638'},\n{'code':'NL' , 'name':'Netherlands', 'value':16664746, 'color':'#d8854f'},\n{'code':'NZ' , 'name':'New Zealand', 'value':4414509, 'color':'#8aabb0'},\n{'code':'NI' , 'name':'Nicaragua', 'value':5869859, 'color':'#a7a737'},\n{'code':'NE' , 'name':'Niger', 'value':16068994, 'color':'#de4c4f'},\n{'code':'NG' , 'name':'Nigeria', 'value':162470737, 'color':'#de4c4f'},\n{'code':'NO' , 'name':'Norway', 'value':4924848, 'color':'#d8854f'},\n{'code':'OM' , 'name':'Oman', 'value':2846145, 'color':'#eea638'},\n{'code':'PK' , 'name':'Pakistan', 'value':176745364, 'color':'#eea638'},\n{'code':'PA' , 'name':'Panama', 'value':3571185, 'color':'#a7a737'},\n{'code':'PG' , 'name':'Papua New Guinea', 'value':7013829, 'color':'#8aabb0'},\n{'code':'PY' , 'name':'Paraguay', 'value':6568290, 'color':'#86a965'},\n{'code':'PE' , 'name':'Peru', 'value':29399817, 'color':'#86a965'},\n{'code':'PH' , 'name':'Philippines', 'value':94852030, 'color':'#eea638'},\n{'code':'PL' , 'name':'Poland', 'value':38298949, 'color':'#d8854f'},\n{'code':'PT' , 'name':'Portugal', 'value':10689663, 'color':'#d8854f'},\n{'code':'PR' , 'name':'Puerto Rico', 'value':3745526, 'color':'#a7a737'},\n{'code':'QA' , 'name':'Qatar', 'value':1870041, 'color':'#eea638'},\n{'code':'RO' , 'name':'Romania', 'value':21436495, 'color':'#d8854f'},\n{'code':'RU' , 'name':'Russia', 'value':142835555, 'color':'#d8854f'},\n{'code':'RW' , 'name':'Rwanda', 'value':10942950, 'color':'#de4c4f'},\n{'code':'SA' , 'name':'Saudi Arabia', 'value':28082541, 'color':'#eea638'},\n{'code':'SN' , 'name':'Senegal', 'value':12767556, 'color':'#de4c4f'},\n{'code':'RS' , 'name':'Serbia', 'value':9853969, 'color':'#d8854f'},\n{'code':'SL' , 'name':'Sierra Leone', 'value':5997486, 'color':'#de4c4f'},\n{'code':'SG' , 'name':'Singapore', 'value':5187933, 'color':'#eea638'},\n{'code':'SK' , 'name':'Slovak Republic', 'value':5471502, 'color':'#d8854f'},\n{'code':'SI' , 'name':'Slovenia', 'value':2035012, 'color':'#d8854f'},\n{'code':'SB' , 'name':'Solomon Islands', 'value':552267, 'color':'#8aabb0'},\n{'code':'SO' , 'name':'Somalia', 'value':9556873, 'color':'#de4c4f'},\n{'code':'ZA' , 'name':'South Africa', 'value':50459978, 'color':'#de4c4f'},\n{'code':'ES' , 'name':'Spain', 'value':46454895, 'color':'#d8854f'},\n{'code':'LK' , 'name':'Sri Lanka', 'value':21045394, 'color':'#eea638'},\n{'code':'SD' , 'name':'Sudan', 'value':34735288, 'color':'#de4c4f'},\n{'code':'SR' , 'name':'Suriname', 'value':529419, 'color':'#86a965'},\n{'code':'SZ' , 'name':'Swaziland', 'value':1203330, 'color':'#de4c4f'},\n{'code':'SE' , 'name':'Sweden', 'value':9440747, 'color':'#d8854f'},\n{'code':'CH' , 'name':'Switzerland', 'value':7701690, 'color':'#d8854f'},\n{'code':'SY' , 'name':'Syria', 'value':20766037, 'color':'#eea638'},\n{'code':'TW' , 'name':'Taiwan', 'value':23072000, 'color':'#eea638'},\n{'code':'TJ' , 'name':'Tajikistan', 'value':6976958, 'color':'#eea638'},\n{'code':'TZ' , 'name':'Tanzania', 'value':46218486, 'color':'#de4c4f'},\n{'code':'TH' , 'name':'Thailand', 'value':69518555, 'color':'#eea638'},\n{'code':'TG' , 'name':'Togo', 'value':6154813, 'color':'#de4c4f'},\n{'code':'TT' , 'name':'Trinidad and Tobago', 'value':1346350, 'color':'#a7a737'},\n{'code':'TN' , 'name':'Tunisia', 'value':10594057, 'color':'#de4c4f'},\n{'code':'TR' , 'name':'Turkey', 'value':73639596, 'color':'#d8854f'},\n{'code':'TM' , 'name':'Turkmenistan', 'value':5105301, 'color':'#eea638'},\n{'code':'UG' , 'name':'Uganda', 'value':34509205, 'color':'#de4c4f'},\n{'code':'UA' , 'name':'Ukraine', 'value':45190180, 'color':'#d8854f'},\n{'code':'AE' , 'name':'United Arab Emirates', 'value':7890924, 'color':'#eea638'},\n{'code':'GB' , 'name':'United Kingdom', 'value':62417431, 'color':'#d8854f'},\n{'code':'US' , 'name':'United States', 'value':313085380, 'color':'#a7a737'},\n{'code':'UY' , 'name':'Uruguay', 'value':3380008, 'color':'#86a965'},\n{'code':'UZ' , 'name':'Uzbekistan', 'value':27760267, 'color':'#eea638'},\n{'code':'VE' , 'name':'Venezuela', 'value':29436891, 'color':'#86a965'},\n{'code':'PS' , 'name':'West Bank and Gaza', 'value':4152369, 'color':'#eea638'},\n{'code':'VN' , 'name':'Vietnam', 'value':88791996, 'color':'#eea638'},\n{'code':'YE' , 'name':'Yemen, Rep.', 'value':24799880, 'color':'#eea638'},\n{'code':'ZM' , 'name':'Zambia', 'value':13474959, 'color':'#de4c4f'},\n{'code':'ZW' , 'name':'Zimbabwe', 'value':12754378, 'color':'#de4c4f'}];\n\n// 后台返回数据格式\nvar data = [\n    [\"Afghanistan\",\"Algeria\",\"China\"],\n    [65,33,32358260],\n    [3,28,35980193],\n    [105,35,1347565324]\n]\n\noption = {\n    backgroundColor: '#f1f1f1',\n    title : {\n        text: '泵机世界销售分布图',\n        left: 'center',\n        top: 'top'\n    },\n    tooltip : {\n        trigger: 'item',\n        formatter: function (params) {\n          if(typeof(params.value)[2] == \"undefined\"){\n          \treturn params.name;\n          }else if(params.seriesType == \"scatter\"){\n            return params.marker + params.data[2]\n          }else{\n          \treturn params.name;\n          }\n        }\n    },\n    visualMap: {\n        show: false,\n        min: 0,\n        max: 1000000000,\n        inRange: {\n            symbolSize: [6, 50]\n        }\n    },\n    geo: {\n        name: 'World Map',\n        type: 'map',\n        map: 'world',\n        roam: true,\n        label: {\n            normal: {\n                show: false\n            },\n            emphasis: {\n                show: true,\n                color:'#020933'\n            }\n        },\n        itemStyle: {\n            normal: {\n                areaColor: 'transparent',\n                borderColor: '#c7c7c7',\n                borderWidth: 2,\n                shadowColor: 'rgba(0, 0, 0, 0.1)',\n                shadowBlur: 30\n            },\n            emphasis: {\n                areaColor: '#b5b3b3',\n            }\n        }\n    },\n    series : [\n        {\n            type: 'scatter',\n            coordinateSystem: 'geo'\n        }\n    ],\n    dataset: {source: data}\n};\nmyChart.setOption(option);\n\n});","html":"","externalScripts":"","updaterUID":"bd-1298913600","theme":"default","layout":"","viewCount":175,"userName":"思***展","commentCount":0,"starCount":0,"isStared":0,"thumbnailURL":"https://www.makeapie.com/ecg-storage/ec_gallery_thumbnail/xIArfTpWn5.png?v=1612408270531","isCustomThumbnail":1,"builtinTags":["category-work","dataset","geo","series-scatter","title","tooltip","visualMap"],"customTags":[],"updaterUserName":"思***展"}}