{"type":"FeatureCollection", "features": [
  {"type":"Feature","geometry":{"type":"Point","coordinates":[120.57365630643233,28.06228610000093]},"properties":{"Id":0,"name":"七都中心排涝闸","type":"水闸","statusType":"左"}},
  {"type":"Feature","geometry":{"type":"Point","coordinates":[120.57364569661559,28.06028786259404]},"properties":{"Id":0,"name":"七都内河","type":"测站","statusType":"右"}},
  {"type":"Feature","geometry":{"type":"Point","coordinates":[120.57364775004369,28.060674618266873]},"properties":{"Id":0,"name":"七都内河(21年建)","type":"测站","statusType":"左"}},        
{"type":"Feature","geometry":{"type":"Point","coordinates":[120.55261454610519,28.062693093857305]},"properties":{"Id":0,"name":"青田","type":"测站","statusType":"上"}},
{"type":"Feature","geometry":{"type":"Point","coordinates":[120.55326046679734,28.062690492480755]},"properties":{"Id":0,"name":"滩坑水库","type":"测站","statusType":"下"}},
{"type":"Feature","geometry":{"type":"Point","coordinates":[120.5540274975073,28.06268739939959]},"properties":{"Id":0,"name":"紧水滩","type":"测站","statusType":"上"}},
{"type":"Feature","geometry":{"type":"Point","coordinates":[120.55474162223453,28.062349503145516]},"properties":{"Id":0,"name":"西坑溪水电站(压力式)","type":"测站","statusType":"右"}},
{"type":"Feature","geometry":{"type":"Point","coordinates":[120.5547394892393,28.061934097649505]},"properties":{"Id":0,"name":"荫溪","type":"测站","statusType":"右"}},
{"type":"Feature","geometry":{"type":"Point","coordinates":[120.55473739306404,28.061525854292576]},"properties":{"Id":0,"name":"双潮荫溪","type":"测站","statusType":"左"}},
{"type":"Feature","geometry":{"type":"Point","coordinates":[120.55473456145837,28.060974367613724]},"properties":{"Id":0,"name":"下冯山水库","type":"小型水库","statusType":"右"}},
{"type":"Feature","geometry":{"type":"Point","coordinates":[120.55790123961752,28.062336700347533]},"properties":{"Id":0,"name":"戍浦江大闸","type":"水闸","statusType":"左"}},
{"type":"Feature","geometry":{"type":"Point","coordinates":[120.55789902050539,28.06190697075387]},"properties":{"Id":0,"name":"戍浦江河口站","type":"测站","statusType":"右"}},
{"type":"Feature","geometry":{"type":"Point","coordinates":[120.55789702334623,28.061520214096422]},"properties":{"Id":0,"name":"戍浦江水闸下游","type":"测站","statusType":"左"}},
{"type":"Feature","geometry":{"type":"Point","coordinates":[120.55789510019335,28.061147781738896]},"properties":{"Id":0,"name":"戍浦江下游","type":"测站","statusType":"右"}},
{"type":"Feature","geometry":{"type":"Point","coordinates":[120.55789336199062,28.06081116016749]},"properties":{"Id":0,"name":"樟村","type":"测站","statusType":"左"}},
{"type":"Feature","geometry":{"type":"Point","coordinates":[120.55789154985372,28.060460214256203]},"properties":{"Id":0,"name":"樟村(21年建)","type":"测站","statusType":"右"}},
{"type":"Feature","geometry":{"type":"Point","coordinates":[120.55788955284267,28.060073457516733]},"properties":{"Id":0,"name":"上戌(21年建)","type":"测站","statusType":"左"}},
{"type":"Feature","geometry":{"type":"Point","coordinates":[120.55788740794893,28.05965805210547]},"properties":{"Id":0,"name":"藤桥(21年建)","type":"测站","statusType":"右"}},
{"type":"Feature","geometry":{"type":"Point","coordinates":[120.55788481934492,28.05915670071336]},"properties":{"Id":0,"name":"藤桥","type":"测站","statusType":"左"}},
{"type":"Feature","geometry":{"type":"Point","coordinates":[120.55788126936756,28.058469133029984]},"properties":{"Id":0,"name":"泽雅水库","type":"中型水库","statusType":"右"}},
{"type":"Feature","geometry":{"type":"Point","coordinates":[120.56191244684031,28.061503839075673]},"properties":{"Id":0,"name":"仰义水闸","type":"水闸","statusType":"左"}},
{"type":"Feature","geometry":{"type":"Point","coordinates":[120.56190659872456,28.060379380550973]},"properties":{"Id":0,"name":"仰义水库","type":"中型水库","statusType":"右"}},
{"type":"Feature","geometry":{"type":"Point","coordinates":[120.56592141972445,28.0623110382694]},"properties":{"Id":0,"name":"卧旗水闸","type":"水闸","statusType":"左"}},
{"type":"Feature","geometry":{"type":"Point","coordinates":[120.5659196189126,28.06196725506923]},"properties":{"Id":0,"name":"卧旗水闸上游","type":"测站","statusType":"右"}},
{"type":"Feature","geometry":{"type":"Point","coordinates":[120.56591455429944,28.061000364725867]},"properties":{"Id":0,"name":"新嵇师","type":"测站","statusType":"右"}},
{"type":"Feature","geometry":{"type":"Point","coordinates":[120.5659112155436,28.06036293323934]},"properties":{"Id":0,"name":"嵇师(21年建)","type":"测站","statusType":"左"}},
{"type":"Feature","geometry":{"type":"Point","coordinates":[120.57069578242131,28.0622841133527]},"properties":{"Id":0,"name":"广化水闸","type":"水闸","statusType":"左"}},
{"type":"Feature","geometry":{"type":"Point","coordinates":[120.57069396641958,28.0619403304365]},"properties":{"Id":0,"name":"勤奋水闸","type":"水闸","statusType":"右"}},
{"type":"Feature","geometry":{"type":"Point","coordinates":[120.57069218828224,28.061603709647596]},"properties":{"Id":0,"name":"广化控制闸","type":"水闸","statusType":"左"}},
{"type":"Feature","geometry":{"type":"Point","coordinates":[120.57069029668043,28.061245602407116]},"properties":{"Id":0,"name":"西山","type":"测站","statusType":"右"}},
{"type":"Feature","geometry":{"type":"Point","coordinates":[120.57068863209955,28.060930468019937]},"properties":{"Id":0,"name":"灰桥新闸","type":"水闸","statusType":"左"}},
{"type":"Feature","geometry":{"type":"Point","coordinates":[120.57068689188465,28.060601009326863]},"properties":{"Id":0,"name":"龟湖控制闸","type":"水闸","statusType":"右"}},
{"type":"Feature","geometry":{"type":"Point","coordinates":[120.57068522735878,28.060285874909898]},"properties":{"Id":0,"name":"三十六村水闸","type":"水闸","statusType":"左"}},
{"type":"Feature","geometry":{"type":"Point","coordinates":[120.57068352503056,28.05996357833203]},"properties":{"Id":0,"name":"洪殿控制闸","type":"水闸","statusType":"右"}},
{"type":"Feature","geometry":{"type":"Point","coordinates":[120.57068182273049,28.05964128173894]},"properties":{"Id":0,"name":"划龙桥(水心殿)","type":"水闸","statusType":"左"}},
{"type":"Feature","geometry":{"type":"Point","coordinates":[120.57068015828646,28.059326147277623]},"properties":{"Id":0,"name":"黎明新闸","type":"水闸","statusType":"右"}},
{"type":"Feature","geometry":{"type":"Point","coordinates":[120.57067860735148,28.05903249924375]},"properties":{"Id":0,"name":"二村水闸","type":"水闸","statusType":"左"}},
{"type":"Feature","geometry":{"type":"Point","coordinates":[120.5706768294791,28.058695878311312]},"properties":{"Id":0,"name":"杨府山水闸","type":"水闸","statusType":"右"}},
{"type":"Feature","geometry":{"type":"Point","coordinates":[120.5736543669223,28.06192083084126]},"properties":{"Id":0,"name":"老涂北水闸","type":"水闸","statusType":"右"}},
{"type":"Feature","geometry":{"type":"Point","coordinates":[120.57365254153426,28.061577048084864]},"properties":{"Id":0,"name":"七都瓯江边(21年建)","type":"测站","statusType":"右"}},
{"type":"Feature","geometry":{"type":"Point","coordinates":[120.57365048801117,28.061190292463202]},"properties":{"Id":0,"name":"七都水文内河点(21年建)","type":"测站","statusType":"右"}},
{"type":"Feature","geometry":{"type":"Point","coordinates":[120.5736415518569,28.059507189039447]},"properties":{"Id":0,"name":"下段水闸","type":"水闸","statusType":"左"}},
{"type":"Feature","geometry":{"type":"Point","coordinates":[120.55908924237862,28.05720919848829]},"properties":{"Id":0,"name":"渔渡上村水闸","type":"水闸","statusType":"上"}},
{"type":"Feature","geometry":{"type":"Point","coordinates":[120.55972167359509,28.05720662197313]},"properties":{"Id":0,"name":"渔渡水闸","type":"水闸","statusType":"下"}},
{"type":"Feature","geometry":{"type":"Point","coordinates":[120.56072414418192,28.05720253195517]},"properties":{"Id":0,"name":"练墩水闸","type":"水闸","statusType":"上"}},
{"type":"Feature","geometry":{"type":"Point","coordinates":[120.56122874339103,28.057200470452468]},"properties":{"Id":0,"name":"渔渡内水闸","type":"水闸","statusType":"下"}},
{"type":"Feature","geometry":{"type":"Point","coordinates":[120.56174679852356,28.057198352047408]},"properties":{"Id":0,"name":"前京","type":"测站","statusType":"上"}},
{"type":"Feature","geometry":{"type":"Point","coordinates":[120.56223794164916,28.057196341884676]},"properties":{"Id":0,"name":"十里水闸","type":"水闸","statusType":"下"}},
{"type":"Feature","geometry":{"type":"Point","coordinates":[120.56274254069812,28.057194274819594]},"properties":{"Id":0,"name":"前京(21年)","type":"测站","statusType":"上"}},
{"type":"Feature","geometry":{"type":"Point","coordinates":[120.56323368372105,28.057192261095626]},"properties":{"Id":0,"name":"后京水闸","type":"水闸","statusType":"下"}},
{"type":"Feature","geometry":{"type":"Point","coordinates":[120.56411504984051,28.057188643022176]},"properties":{"Id":0,"name":"岩门水闸上游","type":"测站","statusType":"上"}},
{"type":"Feature","geometry":{"type":"Point","coordinates":[120.56471384046961,28.057186181714737]},"properties":{"Id":0,"name":"岩门水闸","type":"水闸","statusType":"下"}},
{"type":"Feature","geometry":{"type":"Point","coordinates":[120.56529917505645,28.057183773194]},"properties":{"Id":0,"name":"岩门水闸下游","type":"测站","statusType":"上"}},
{"type":"Feature","geometry":{"type":"Point","coordinates":[120.56649002795817,28.057178865398804]},"properties":{"Id":0,"name":"岩门上游(21年)","type":"测站","statusType":"下"}},
{"type":"Feature","geometry":{"type":"Point","coordinates":[120.56716282607519,28.0571760880679]},"properties":{"Id":0,"name":"丰门河(21年)","type":"测站","statusType":"上"}},
{"type":"Feature","geometry":{"type":"Point","coordinates":[120.5679230878321,28.057172945717152]},"properties":{"Id":0,"name":"岩门下游(21年)","type":"测站","statusType":"下"}},
{"type":"Feature","geometry":{"type":"Point","coordinates":[120.56845459819117,28.057170746352625]},"properties":{"Id":0,"name":"双屿康龙(21年)","type":"测站","statusType":"上"}},
{"type":"Feature","geometry":{"type":"Point","coordinates":[120.56895919657785,28.057168656444766]},"properties":{"Id":0,"name":"北排水闸","type":"水闸","statusType":"下"}},
{"type":"Feature","geometry":{"type":"Point","coordinates":[120.56976655388405,28.057165308735634]},"properties":{"Id":0,"name":"双屿康龙","type":"测站","statusType":"上"}}
]}